% program   : RTKPOST ver.2.4.3 b34
% inp file  : D:\PROJECT\data\IISC00IND_R_20260380000_01D_30S_MO.rnx
% inp file  : D:\PROJECT\data\IISC00IND_R_20260380000_01D_MN.rnx
% inp file  : D:\PROJECT\data\COD0MGXFIN_20260380000_01D_30S_CLK.CLK
% inp file  : D:\PROJECT\data\COD0MGXFIN_20260380000_01D_05M_ORB.SP3
% inp file  : D:\PROJECT\data\COD0MGXFIN_20260380000_01D_01D_OSB.BIA
% obs start : 2026/02/07 00:00:00.0 GPST (week2404 518400.0s)
% obs end   : 2026/02/07 23:59:30.0 GPST (week2404 604770.0s)
% pos mode  : PPP Static
% solution  : Forward
% elev mask : 15.0 deg
% dynamics  : off
% tidecorr  : off
% tropo opt : Estimate ZTD
% ephemeris : Precise
% navi sys  : GPS
% antenna1  :                       ( 0.0000  0.0000  0.0000)
%
% (x/y/z-ecef=WGS84,Q=1:fix,2:float,3:sbas,4:dgps,5:single,6:ppp,ns=# of satellites)
%  GPST                      x-ecef(m)      y-ecef(m)      z-ecef(m)   Q  ns   sdx(m)   sdy(m)   sdz(m)  sdxy(m)  sdyz(m)  sdzx(m) age(s)  ratio
2026/02/07 00:00:00.000   1337935.8735   6070318.1919   1427876.6377   6   5   9.5789  11.8695   5.2333   8.9562   1.0725  -0.9863   0.00    0.0
2026/02/07 00:00:30.000   1337937.1137   6070318.3956   1427876.7386   6   5   5.9230   6.9078   3.1749   5.0372   2.0693   1.4859   0.00    0.0
2026/02/07 00:01:00.000   1337938.4912   6070319.6007   1427877.3161   6   5   4.6264   5.2682   2.4507   3.7929   1.7271   1.2802   0.00    0.0
2026/02/07 00:01:30.000   1337938.8630   6070319.9081   1427877.7865   6   5   3.9095   4.3920   2.0557   3.1374   1.4887   1.1186   0.00    0.0
2026/02/07 00:02:00.000   1337938.7931   6070319.9796   1427878.0634   6   5   3.4403   3.8312   1.8000   2.7208   1.3215   1.0009   0.00    0.0
2026/02/07 00:02:30.000   1337938.4977   6070319.6379   1427878.1289   6   5   3.1034   3.4351   1.6182   2.4277   1.1979   0.9120   0.00    0.0
2026/02/07 00:03:00.000   1337938.1985   6070319.0524   1427878.0898   6   5   2.7553   2.9793   1.4165   2.0750   1.0947   0.8440   0.00    0.0
2026/02/07 00:03:30.000   1337937.7737   6070318.7195   1427877.9049   6   5   2.3737   2.4557   1.1839   1.6575   0.9846   0.7689   0.00    0.0
2026/02/07 00:04:00.000   1337936.9453   6070318.2263   1427877.5581   6   5   1.9372   1.8864   0.9194   1.1894   0.8440   0.6543   0.00    0.0
2026/02/07 00:04:30.000   1337936.0060   6070317.4807   1427877.3881   6   5   1.4239   1.3358   0.6440   0.7102   0.6801   0.4837   0.00    0.0
2026/02/07 00:05:00.000   1337935.7810   6070316.9378   1427877.3866   6   5   1.0136   0.9980   0.4630   0.3917   0.5630   0.3367   0.00    0.0
2026/02/07 00:05:30.000   1337935.7809   6070316.8879   1427877.3659   6   4   0.9487   0.9426   0.4345   0.3490   0.5302   0.3056   0.00    0.0
2026/02/07 00:06:00.000   1337935.7844   6070316.9094   1427877.3785   6   4   0.9218   0.9207   0.4238   0.3389   0.5171   0.2954   0.00    0.0
2026/02/07 00:06:30.000   1337935.8084   6070316.8916   1427877.3739   6   4   0.9041   0.9071   0.4174   0.3359   0.5091   0.2903   0.00    0.0
2026/02/07 00:07:00.000   1337935.8352   6070316.8903   1427877.3792   6   4   0.8902   0.8969   0.4127   0.3355   0.5031   0.2870   0.00    0.0
2026/02/07 00:07:30.000   1337935.8807   6070316.8770   1427877.3816   6   4   0.8783   0.8884   0.4090   0.3362   0.4982   0.2847   0.00    0.0
2026/02/07 00:08:00.000   1337935.9373   6070316.8716   1427877.3987   6   5   0.8620   0.8749   0.4025   0.3325   0.4901   0.2796   0.00    0.0
2026/02/07 00:08:30.000   1337935.9672   6070316.8481   1427877.4057   6   5   0.8359   0.8528   0.3915   0.3208   0.4772   0.2694   0.00    0.0
2026/02/07 00:09:00.000   1337935.9869   6070316.7745   1427877.4143   6   5   0.7873   0.8121   0.3708   0.2931   0.4546   0.2487   0.00    0.0
2026/02/07 00:09:30.000   1337935.9067   6070316.6144   1427877.4128   6   4   0.6820   0.7319   0.3290   0.2352   0.4151   0.2088   0.00    0.0
2026/02/07 00:10:00.000   1337935.6780   6070316.5737   1427877.3073   6   4   0.5307   0.6362   0.2776   0.1748   0.3759   0.1692   0.00    0.0
2026/02/07 00:10:30.000   1337935.6580   6070316.5801   1427877.3287   6   4   0.5018   0.6164   0.2672   0.1652   0.3644   0.1588   0.00    0.0
2026/02/07 00:11:00.000   1337935.6656   6070316.5812   1427877.3502   6   4   0.4917   0.6094   0.2637   0.1634   0.3602   0.1557   0.00    0.0
2026/02/07 00:11:30.000   1337935.6670   6070316.5924   1427877.3577   6   4   0.4860   0.6054   0.2617   0.1635   0.3579   0.1544   0.00    0.0
2026/02/07 00:12:00.000   1337935.6726   6070316.5944   1427877.3554   6   4   0.4819   0.6026   0.2604   0.1642   0.3563   0.1537   0.00    0.0
2026/02/07 00:12:30.000   1337935.6840   6070316.5890   1427877.3543   6   4   0.4788   0.6003   0.2594   0.1651   0.3550   0.1534   0.00    0.0
2026/02/07 00:13:00.000   1337935.6836   6070316.5931   1427877.3580   6   4   0.4741   0.5971   0.2579   0.1657   0.3531   0.1525   0.00    0.0
2026/02/07 00:13:30.000   1337935.6759   6070316.6054   1427877.3633   6   4   0.4661   0.5917   0.2553   0.1657   0.3501   0.1507   0.00    0.0
2026/02/07 00:14:00.000   1337935.6443   6070316.6346   1427877.3689   6   4   0.4500   0.5814   0.2502   0.1648   0.3446   0.1470   0.00    0.0
2026/02/07 00:14:30.000   1337935.5458   6070316.7096   1427877.3775   6   4   0.4101   0.5586   0.2387   0.1647   0.3335   0.1399   0.00    0.0
2026/02/07 00:15:00.000   1337935.4096   6070316.7996   1427877.3633   6   4   0.3396   0.5250   0.2216   0.1704   0.3205   0.1355   0.00    0.0
2026/02/07 00:15:30.000   1337935.4062   6070316.7852   1427877.3631   6   4   0.3248   0.5175   0.2177   0.1705   0.3164   0.1328   0.00    0.0
2026/02/07 00:16:00.000   1337935.4264   6070316.7851   1427877.3727   6   4   0.3198   0.5148   0.2164   0.1708   0.3149   0.1320   0.00    0.0
2026/02/07 00:16:30.000   1337935.4389   6070316.7861   1427877.3767   6   5   0.3172   0.5132   0.2156   0.1710   0.3139   0.1316   0.00    0.0
2026/02/07 00:17:00.000   1337935.4415   6070316.7968   1427877.3818   6   5   0.3155   0.5120   0.2150   0.1713   0.3133   0.1314   0.00    0.0
2026/02/07 00:17:30.000   1337935.4403   6070316.7937   1427877.3802   6   5   0.3142   0.5111   0.2146   0.1715   0.3127   0.1313   0.00    0.0
2026/02/07 00:18:00.000   1337935.4379   6070316.7950   1427877.3789   6   5   0.3122   0.5098   0.2140   0.1719   0.3120   0.1311   0.00    0.0
2026/02/07 00:18:30.000   1337935.4433   6070316.7955   1427877.3799   6   5   0.3088   0.5078   0.2131   0.1728   0.3109   0.1309   0.00    0.0
2026/02/07 00:19:00.000   1337935.4488   6070316.7861   1427877.3763   6   5   0.3019   0.5039   0.2114   0.1747   0.3090   0.1307   0.00    0.0
2026/02/07 00:19:30.000   1337935.4571   6070316.7655   1427877.3653   6   5   0.2840   0.4948   0.2075   0.1811   0.3049   0.1317   0.00    0.0
2026/02/07 00:20:00.000   1337935.4511   6070316.7502   1427877.3280   6   5   0.2493   0.4787   0.2007   0.1947   0.2990   0.1369   0.00    0.0
2026/02/07 00:20:30.000   1337935.4458   6070316.7318   1427877.3144   6   5   0.2417   0.4749   0.1990   0.1969   0.2971   0.1371   0.00    0.0
2026/02/07 00:21:00.000   1337935.4475   6070316.7296   1427877.3120   6   5   0.2392   0.4734   0.1983   0.1975   0.2964   0.1371   0.00    0.0
2026/02/07 00:21:30.000   1337935.4497   6070316.7280   1427877.3118   6   5   0.2380   0.4725   0.1980   0.1979   0.2959   0.1371   0.00    0.0
2026/02/07 00:22:00.000   1337935.4486   6070316.7267   1427877.3105   6   5   0.2372   0.4718   0.1977   0.1981   0.2955   0.1371   0.00    0.0
2026/02/07 00:22:30.000   1337935.4500   6070316.7259   1427877.3093   6   5   0.2366   0.4712   0.1975   0.1982   0.2952   0.1371   0.00    0.0
2026/02/07 00:23:00.000   1337935.4521   6070316.7256   1427877.3085   6   5   0.2357   0.4704   0.1971   0.1985   0.2947   0.1372   0.00    0.0
2026/02/07 00:23:30.000   1337935.4505   6070316.7196   1427877.3052   6   5   0.2342   0.4690   0.1967   0.1992   0.2940   0.1374   0.00    0.0
2026/02/07 00:24:00.000   1337935.4443   6070316.7195   1427877.3027   6   5   0.2312   0.4663   0.1957   0.2008   0.2927   0.1380   0.00    0.0
2026/02/07 00:24:30.000   1337935.4366   6070316.7233   1427877.3008   6   5   0.2233   0.4592   0.1933   0.2055   0.2893   0.1400   0.00    0.0
2026/02/07 00:25:00.000   1337935.4243   6070316.7512   1427877.2954   6   5   0.2074   0.4442   0.1881   0.2151   0.2825   0.1453   0.00    0.0
2026/02/07 00:25:30.000   1337935.4346   6070316.7603   1427877.3026   6   5   0.2038   0.4401   0.1867   0.2167   0.2805   0.1460   0.00    0.0
2026/02/07 00:26:00.000   1337935.4376   6070316.7792   1427877.3094   6   5   0.2026   0.4386   0.1861   0.2171   0.2796   0.1461   0.00    0.0
2026/02/07 00:26:30.000   1337935.4388   6070316.7893   1427877.3132   6   5   0.2021   0.4376   0.1858   0.2173   0.2791   0.1461   0.00    0.0
2026/02/07 00:27:00.000   1337935.4385   6070316.7914   1427877.3141   6   5   0.2017   0.4369   0.1856   0.2173   0.2787   0.1461   0.00    0.0
2026/02/07 00:27:30.000   1337935.4408   6070316.7968   1427877.3166   6   5   0.2014   0.4364   0.1853   0.2173   0.2784   0.1461   0.00    0.0
2026/02/07 00:28:00.000   1337935.4422   6070316.7992   1427877.3181   6   5   0.2010   0.4355   0.1850   0.2174   0.2779   0.1461   0.00    0.0
2026/02/07 00:28:30.000   1337935.4381   6070316.7870   1427877.3145   6   5   0.2004   0.4341   0.1846   0.2177   0.2771   0.1463   0.00    0.0
2026/02/07 00:29:00.000   1337935.4318   6070316.7871   1427877.3151   6   5   0.1992   0.4311   0.1836   0.2184   0.2755   0.1466   0.00    0.0
2026/02/07 00:29:30.000   1337935.3981   6070316.7741   1427877.3051   6   5   0.1961   0.4230   0.1809   0.2205   0.2712   0.1478   0.00    0.0
2026/02/07 00:30:00.000   1337935.3409   6070316.7797   1427877.2992   6   5   0.1898   0.4052   0.1749   0.2248   0.2618   0.1507   0.00    0.0
2026/02/07 00:30:30.000   1337935.3262   6070316.7606   1427877.2913   6   5   0.1883   0.4004   0.1733   0.2252   0.2592   0.1509   0.00    0.0
2026/02/07 00:31:00.000   1337935.3194   6070316.7491   1427877.2865   6   5   0.1878   0.3986   0.1726   0.2253   0.2582   0.1509   0.00    0.0
2026/02/07 00:31:30.000   1337935.3177   6070316.7473   1427877.2854   6   5   0.1875   0.3976   0.1723   0.2252   0.2576   0.1509   0.00    0.0
2026/02/07 00:32:00.000   1337935.3176   6070316.7490   1427877.2861   6   4   0.1874   0.3971   0.1721   0.2253   0.2573   0.1509   0.00    0.0
2026/02/07 00:32:30.000   1337935.3172   6070316.7497   1427877.2863   6   4   0.1873   0.3967   0.1720   0.2254   0.2571   0.1510   0.00    0.0
2026/02/07 00:33:00.000   1337935.3167   6070316.7519   1427877.2871   6   4   0.1872   0.3961   0.1718   0.2255   0.2568   0.1510   0.00    0.0
2026/02/07 00:33:30.000   1337935.3163   6070316.7629   1427877.2904   6   4   0.1871   0.3950   0.1714   0.2257   0.2562   0.1512   0.00    0.0
2026/02/07 00:34:00.000   1337935.3142   6070316.7829   1427877.2953   6   4   0.1869   0.3926   0.1706   0.2261   0.2548   0.1515   0.00    0.0
2026/02/07 00:34:30.000   1337935.3095   6070316.7713   1427877.2954   6   4   0.1864   0.3853   0.1682   0.2271   0.2507   0.1522   0.00    0.0
2026/02/07 00:35:00.000   1337935.3056   6070316.8045   1427877.3089   6   4   0.1855   0.3680   0.1621   0.2289   0.2411   0.1538   0.00    0.0
2026/02/07 00:35:30.000   1337935.3086   6070316.8385   1427877.3174   6   4   0.1853   0.3639   0.1608   0.2292   0.2388   0.1540   0.00    0.0
2026/02/07 00:36:00.000   1337935.3098   6070316.8469   1427877.3196   6   4   0.1853   0.3624   0.1603   0.2292   0.2380   0.1541   0.00    0.0
2026/02/07 00:36:30.000   1337935.3097   6070316.8478   1427877.3201   6   4   0.1852   0.3617   0.1600   0.2292   0.2375   0.1541   0.00    0.0
2026/02/07 00:37:00.000   1337935.3107   6070316.8495   1427877.3210   6   4   0.1852   0.3611   0.1598   0.2291   0.2372   0.1541   0.00    0.0
2026/02/07 00:37:30.000   1337935.3110   6070316.8486   1427877.3209   6   5   0.1851   0.3606   0.1596   0.2290   0.2369   0.1540   0.00    0.0
2026/02/07 00:38:00.000   1337935.3118   6070316.8468   1427877.3206   6   5   0.1850   0.3598   0.1593   0.2289   0.2364   0.1539   0.00    0.0
2026/02/07 00:38:30.000   1337935.3118   6070316.8425   1427877.3195   6   5   0.1849   0.3585   0.1588   0.2286   0.2356   0.1538   0.00    0.0
2026/02/07 00:39:00.000   1337935.3119   6070316.8398   1427877.3194   6   5   0.1848   0.3555   0.1578   0.2282   0.2339   0.1536   0.00    0.0
2026/02/07 00:39:30.000   1337935.3136   6070316.8588   1427877.3265   6   5   0.1845   0.3472   0.1548   0.2271   0.2290   0.1530   0.00    0.0
2026/02/07 00:40:00.000   1337935.3207   6070316.9182   1427877.3459   6   5   0.1839   0.3280   0.1477   0.2241   0.2176   0.1516   0.00    0.0
2026/02/07 00:40:30.000   1337935.3223   6070316.9228   1427877.3483   6   5   0.1837   0.3232   0.1460   0.2232   0.2148   0.1512   0.00    0.0
2026/02/07 00:41:00.000   1337935.3232   6070316.9243   1427877.3487   6   6   0.1835   0.3215   0.1453   0.2228   0.2137   0.1510   0.00    0.0
2026/02/07 00:41:30.000   1337935.3253   6070316.9303   1427877.3509   6   6   0.1834   0.3205   0.1449   0.2225   0.2131   0.1508   0.00    0.0
2026/02/07 00:42:00.000   1337935.3280   6070316.9358   1427877.3532   6   7   0.1832   0.3197   0.1446   0.2222   0.2127   0.1506   0.00    0.0
2026/02/07 00:42:30.000   1337935.3311   6070316.9418   1427877.3558   6   7   0.1831   0.3191   0.1444   0.2220   0.2123   0.1504   0.00    0.0
2026/02/07 00:43:00.000   1337935.3355   6070316.9516   1427877.3603   6   7   0.1829   0.3181   0.1440   0.2215   0.2116   0.1501   0.00    0.0
2026/02/07 00:43:30.000   1337935.3408   6070316.9649   1427877.3666   6   7   0.1825   0.3162   0.1432   0.2207   0.2104   0.1496   0.00    0.0
2026/02/07 00:44:00.000   1337935.3502   6070316.9892   1427877.3783   6   7   0.1818   0.3122   0.1417   0.2191   0.2079   0.1487   0.00    0.0
2026/02/07 00:44:30.000   1337935.3542   6070317.0017   1427877.3878   6   7   0.1804   0.3025   0.1379   0.2155   0.2019   0.1465   0.00    0.0
2026/02/07 00:45:00.000   1337935.3702   6070317.0477   1427877.4080   6   7   0.1780   0.2821   0.1298   0.2085   0.1893   0.1424   0.00    0.0
2026/02/07 00:45:30.000   1337935.3789   6070317.0678   1427877.4169   6   7   0.1771   0.2765   0.1276   0.2063   0.1858   0.1410   0.00    0.0
2026/02/07 00:46:00.000   1337935.3848   6070317.0807   1427877.4218   6   7   0.1766   0.2743   0.1268   0.2053   0.1844   0.1404   0.00    0.0
2026/02/07 00:46:30.000   1337935.3878   6070317.0875   1427877.4244   6   7   0.1762   0.2729   0.1262   0.2046   0.1835   0.1400   0.00    0.0
2026/02/07 00:47:00.000   1337935.3881   6070317.0876   1427877.4245   6   7   0.1760   0.2720   0.1258   0.2041   0.1829   0.1397   0.00    0.0
2026/02/07 00:47:30.000   1337935.3888   6070317.0884   1427877.4250   6   7   0.1757   0.2712   0.1255   0.2036   0.1824   0.1394   0.00    0.0
2026/02/07 00:48:00.000   1337935.3939   6070317.0942   1427877.4281   6   7   0.1753   0.2699   0.1250   0.2029   0.1816   0.1389   0.00    0.0
2026/02/07 00:48:30.000   1337935.3980   6070317.1002   1427877.4309   6   7   0.1745   0.2676   0.1240   0.2015   0.1800   0.1380   0.00    0.0
2026/02/07 00:49:00.000   1337935.4044   6070317.1131   1427877.4360   6   7   0.1730   0.2627   0.1219   0.1987   0.1769   0.1362   0.00    0.0
2026/02/07 00:49:30.000   1337935.4278   6070317.1584   1427877.4557   6   7   0.1695   0.2509   0.1171   0.1923   0.1693   0.1321   0.00    0.0
2026/02/07 00:50:00.000   1337935.4639   6070317.2335   1427877.4863   6   7   0.1640   0.2294   0.1081   0.1814   0.1555   0.1253   0.00    0.0
2026/02/07 00:50:30.000   1337935.4793   6070317.2608   1427877.4981   6   7   0.1620   0.2231   0.1054   0.1779   0.1514   0.1230   0.00    0.0
2026/02/07 00:51:00.000   1337935.4858   6070317.2711   1427877.5026   6   7   0.1612   0.2206   0.1044   0.1764   0.1498   0.1221   0.00    0.0
2026/02/07 00:51:30.000   1337935.4883   6070317.2740   1427877.5038   6   7   0.1607   0.2193   0.1038   0.1756   0.1489   0.1216   0.00    0.0
2026/02/07 00:52:00.000   1337935.4894   6070317.2745   1427877.5040   6   7   0.1603   0.2184   0.1034   0.1750   0.1483   0.1212   0.00    0.0
2026/02/07 00:52:30.000   1337935.4905   6070317.2754   1427877.5044   6   7   0.1601   0.2177   0.1032   0.1746   0.1479   0.1209   0.00    0.0
2026/02/07 00:53:00.000   1337935.4931   6070317.2802   1427877.5063   6   7   0.1596   0.2166   0.1027   0.1739   0.1472   0.1204   0.00    0.0
2026/02/07 00:53:30.000   1337935.4974   6070317.2887   1427877.5095   6   7   0.1588   0.2146   0.1018   0.1726   0.1459   0.1196   0.00    0.0
2026/02/07 00:54:00.000   1337935.4974   6070317.2897   1427877.5095   6   7   0.1573   0.2106   0.1001   0.1700   0.1432   0.1179   0.00    0.0
2026/02/07 00:54:30.000   1337935.4953   6070317.2877   1427877.5086   6   7   0.1536   0.2010   0.0960   0.1640   0.1369   0.1140   0.00    0.0
2026/02/07 00:55:00.000   1337935.4823   6070317.2685   1427877.4988   6   7   0.1475   0.1827   0.0881   0.1533   0.1249   0.1071   0.00    0.0
2026/02/07 00:55:30.000   1337935.4740   6070317.2606   1427877.4936   6   7   0.1454   0.1774   0.0858   0.1500   0.1214   0.1050   0.00    0.0
2026/02/07 00:56:00.000   1337935.4658   6070317.2462   1427877.4870   6   7   0.1446   0.1755   0.0850   0.1487   0.1202   0.1041   0.00    0.0
2026/02/07 00:56:30.000   1337935.4629   6070317.2422   1427877.4850   6   6   0.1442   0.1747   0.0846   0.1482   0.1196   0.1038   0.00    0.0
2026/02/07 00:57:00.000   1337935.4604   6070317.2386   1427877.4833   6   6   0.1439   0.1742   0.0844   0.1478   0.1193   0.1035   0.00    0.0
2026/02/07 00:57:30.000   1337935.4592   6070317.2366   1427877.4825   6   6   0.1437   0.1739   0.0842   0.1475   0.1191   0.1033   0.00    0.0
2026/02/07 00:58:00.000   1337935.4571   6070317.2331   1427877.4811   6   6   0.1434   0.1733   0.0840   0.1471   0.1187   0.1030   0.00    0.0
2026/02/07 00:58:30.000   1337935.4529   6070317.2262   1427877.4783   6   6   0.1429   0.1723   0.0835   0.1463   0.1180   0.1025   0.00    0.0
2026/02/07 00:59:00.000   1337935.4461   6070317.2132   1427877.4737   6   6   0.1418   0.1701   0.0825   0.1448   0.1165   0.1015   0.00    0.0
2026/02/07 00:59:30.000   1337935.4361   6070317.1953   1427877.4666   6   6   0.1390   0.1641   0.0798   0.1406   0.1125   0.0987   0.00    0.0
2026/02/07 01:00:00.000   1337935.4382   6070317.1879   1427877.4639   6   6   0.1335   0.1507   0.0737   0.1318   0.1034   0.0929   0.00    0.0
2026/02/07 01:00:30.000   1337935.4400   6070317.1859   1427877.4643   6   6   0.1317   0.1472   0.0721   0.1293   0.1011   0.0912   0.00    0.0
2026/02/07 01:01:00.000   1337935.4400   6070317.1840   1427877.4639   6   6   0.1311   0.1459   0.0715   0.1284   0.1002   0.0906   0.00    0.0
2026/02/07 01:01:30.000   1337935.4403   6070317.1840   1427877.4639   6   6   0.1308   0.1453   0.0712   0.1279   0.0998   0.0903   0.00    0.0
2026/02/07 01:02:00.000   1337935.4399   6070317.1834   1427877.4637   6   6   0.1305   0.1449   0.0710   0.1276   0.0995   0.0901   0.00    0.0
2026/02/07 01:02:30.000   1337935.4398   6070317.1834   1427877.4636   6   6   0.1304   0.1447   0.0709   0.1274   0.0993   0.0899   0.00    0.0
2026/02/07 01:03:00.000   1337935.4397   6070317.1836   1427877.4636   6   6   0.1301   0.1442   0.0707   0.1271   0.0990   0.0897   0.00    0.0
2026/02/07 01:03:30.000   1337935.4398   6070317.1839   1427877.4636   6   6   0.1297   0.1434   0.0703   0.1265   0.0985   0.0893   0.00    0.0
2026/02/07 01:04:00.000   1337935.4426   6070317.1872   1427877.4651   6   6   0.1288   0.1417   0.0696   0.1252   0.0973   0.0885   0.00    0.0
2026/02/07 01:04:30.000   1337935.4462   6070317.1886   1427877.4677   6   6   0.1265   0.1370   0.0674   0.1218   0.0941   0.0861   0.00    0.0
2026/02/07 01:05:00.000   1337935.4531   6070317.1962   1427877.4727   6   6   0.1213   0.1258   0.0622   0.1139   0.0865   0.0809   0.00    0.0
2026/02/07 01:05:30.000   1337935.4567   6070317.2004   1427877.4751   6   6   0.1198   0.1229   0.0608   0.1118   0.0845   0.0795   0.00    0.0
2026/02/07 01:06:00.000   1337935.4590   6070317.2038   1427877.4763   6   6   0.1193   0.1219   0.0604   0.1111   0.0838   0.0790   0.00    0.0
2026/02/07 01:06:30.000   1337935.4623   6070317.2073   1427877.4779   6   6   0.1190   0.1215   0.0602   0.1107   0.0835   0.0788   0.00    0.0
2026/02/07 01:07:00.000   1337935.4633   6070317.2083   1427877.4785   6   6   0.1188   0.1212   0.0600   0.1105   0.0833   0.0786   0.00    0.0
2026/02/07 01:07:30.000   1337935.4643   6070317.2093   1427877.4790   6   6   0.1187   0.1210   0.0599   0.1103   0.0832   0.0785   0.00    0.0
2026/02/07 01:08:00.000   1337935.4658   6070317.2109   1427877.4797   6   6   0.1185   0.1206   0.0598   0.1100   0.0829   0.0783   0.00    0.0
2026/02/07 01:08:30.000   1337935.4676   6070317.2131   1427877.4807   6   6   0.1182   0.1200   0.0595   0.1096   0.0825   0.0780   0.00    0.0
2026/02/07 01:09:00.000   1337935.4706   6070317.2162   1427877.4823   6   6   0.1174   0.1188   0.0589   0.1086   0.0817   0.0773   0.00    0.0
2026/02/07 01:09:30.000   1337935.4720   6070317.2149   1427877.4824   6   6   0.1155   0.1151   0.0572   0.1058   0.0791   0.0754   0.00    0.0
2026/02/07 01:10:00.000   1337935.4764   6070317.2138   1427877.4827   6   6   0.1109   0.1059   0.0528   0.0991   0.0728   0.0709   0.00    0.0
2026/02/07 01:10:30.000   1337935.4821   6070317.2200   1427877.4853   6   6   0.1096   0.1037   0.0518   0.0973   0.0712   0.0697   0.00    0.0
2026/02/07 01:11:00.000   1337935.4855   6070317.2235   1427877.4870   6   6   0.1092   0.1030   0.0514   0.0968   0.0707   0.0693   0.00    0.0
2026/02/07 01:11:30.000   1337935.4873   6070317.2254   1427877.4879   6   6   0.1089   0.1026   0.0512   0.0965   0.0705   0.0691   0.00    0.0
2026/02/07 01:12:00.000   1337935.4880   6070317.2262   1427877.4883   6   6   0.1088   0.1024   0.0511   0.0963   0.0703   0.0690   0.00    0.0
2026/02/07 01:12:30.000   1337935.4885   6070317.2267   1427877.4885   6   6   0.1087   0.1022   0.0510   0.0961   0.0702   0.0689   0.00    0.0
2026/02/07 01:13:00.000   1337935.4897   6070317.2274   1427877.4890   6   6   0.1085   0.1020   0.0509   0.0959   0.0700   0.0687   0.00    0.0
2026/02/07 01:13:30.000   1337935.4913   6070317.2288   1427877.4898   6   6   0.1083   0.1015   0.0507   0.0956   0.0697   0.0685   0.00    0.0
2026/02/07 01:14:00.000   1337935.4942   6070317.2310   1427877.4910   6   6   0.1077   0.1006   0.0502   0.0948   0.0691   0.0680   0.00    0.0
2026/02/07 01:14:30.000   1337935.5026   6070317.2381   1427877.4945   6   6   0.1061   0.0978   0.0489   0.0926   0.0671   0.0664   0.00    0.0
2026/02/07 01:15:00.000   1337935.4982   6070317.2304   1427877.4917   6   6   0.1019   0.0903   0.0453   0.0868   0.0619   0.0625   0.00    0.0
2026/02/07 01:15:30.000   1337935.4973   6070317.2299   1427877.4915   6   6   0.1009   0.0885   0.0444   0.0854   0.0606   0.0615   0.00    0.0
2026/02/07 01:16:00.000   1337935.4976   6070317.2300   1427877.4918   6   6   0.1005   0.0879   0.0441   0.0849   0.0602   0.0612   0.00    0.0
2026/02/07 01:16:30.000   1337935.4973   6070317.2295   1427877.4916   6   6   0.1003   0.0877   0.0440   0.0846   0.0600   0.0610   0.00    0.0
2026/02/07 01:17:00.000   1337935.4967   6070317.2291   1427877.4914   6   6   0.1002   0.0875   0.0439   0.0845   0.0599   0.0609   0.00    0.0
2026/02/07 01:17:30.000   1337935.4970   6070317.2294   1427877.4916   6   6   0.1001   0.0874   0.0438   0.0844   0.0598   0.0608   0.00    0.0
2026/02/07 01:18:00.000   1337935.4976   6070317.2300   1427877.4919   6   6   0.1000   0.0872   0.0438   0.0842   0.0597   0.0607   0.00    0.0
2026/02/07 01:18:30.000   1337935.4988   6070317.2308   1427877.4926   6   6   0.0998   0.0868   0.0436   0.0839   0.0594   0.0605   0.00    0.0
2026/02/07 01:19:00.000   1337935.4994   6070317.2309   1427877.4932   6   6   0.0993   0.0861   0.0432   0.0833   0.0589   0.0601   0.00    0.0
2026/02/07 01:19:30.000   1337935.5034   6070317.2330   1427877.4954   6   6   0.0979   0.0839   0.0421   0.0815   0.0574   0.0588   0.00    0.0
2026/02/07 01:20:00.000   1337935.5174   6070317.2463   1427877.5026   6   6   0.0942   0.0779   0.0391   0.0766   0.0531   0.0554   0.00    0.0
2026/02/07 01:20:30.000   1337935.5189   6070317.2485   1427877.5041   6   6   0.0933   0.0765   0.0384   0.0754   0.0521   0.0545   0.00    0.0
2026/02/07 01:21:00.000   1337935.5184   6070317.2483   1427877.5041   6   6   0.0930   0.0760   0.0382   0.0750   0.0517   0.0543   0.00    0.0
2026/02/07 01:21:30.000   1337935.5187   6070317.2485   1427877.5043   6   6   0.0928   0.0758   0.0381   0.0748   0.0516   0.0541   0.00    0.0
2026/02/07 01:22:00.000   1337935.5193   6070317.2489   1427877.5045   6   6   0.0927   0.0757   0.0380   0.0747   0.0515   0.0540   0.00    0.0
2026/02/07 01:22:30.000   1337935.5200   6070317.2495   1427877.5047   6   6   0.0926   0.0756   0.0380   0.0746   0.0514   0.0540   0.00    0.0
2026/02/07 01:23:00.000   1337935.5209   6070317.2504   1427877.5051   6   6   0.0925   0.0754   0.0379   0.0744   0.0513   0.0539   0.00    0.0
2026/02/07 01:23:30.000   1337935.5209   6070317.2506   1427877.5051   6   6   0.0923   0.0752   0.0378   0.0742   0.0511   0.0537   0.00    0.0
2026/02/07 01:24:00.000   1337935.5193   6070317.2494   1427877.5044   6   6   0.0919   0.0746   0.0375   0.0737   0.0507   0.0534   0.00    0.0
2026/02/07 01:24:30.000   1337935.5194   6070317.2497   1427877.5047   6   6   0.0908   0.0729   0.0366   0.0722   0.0495   0.0523   0.00    0.0
2026/02/07 01:25:00.000   1337935.5199   6070317.2493   1427877.5055   6   6   0.0874   0.0680   0.0341   0.0680   0.0459   0.0493   0.00    0.0
2026/02/07 01:25:30.000   1337935.5177   6070317.2466   1427877.5052   6   6   0.0866   0.0669   0.0335   0.0670   0.0451   0.0486   0.00    0.0
2026/02/07 01:26:00.000   1337935.5177   6070317.2464   1427877.5053   6   6   0.0864   0.0666   0.0333   0.0667   0.0449   0.0484   0.00    0.0
2026/02/07 01:26:30.000   1337935.5184   6070317.2467   1427877.5056   6   6   0.0862   0.0664   0.0332   0.0665   0.0447   0.0482   0.00    0.0
2026/02/07 01:27:00.000   1337935.5190   6070317.2468   1427877.5058   6   6   0.0862   0.0663   0.0332   0.0664   0.0447   0.0482   0.00    0.0
2026/02/07 01:27:30.000   1337935.5194   6070317.2470   1427877.5059   6   6   0.0861   0.0662   0.0331   0.0663   0.0446   0.0481   0.00    0.0
2026/02/07 01:28:00.000   1337935.5195   6070317.2469   1427877.5060   6   6   0.0860   0.0661   0.0331   0.0662   0.0445   0.0480   0.00    0.0
2026/02/07 01:28:30.000   1337935.5195   6070317.2467   1427877.5060   6   6   0.0858   0.0659   0.0329   0.0660   0.0444   0.0479   0.00    0.0
2026/02/07 01:29:00.000   1337935.5185   6070317.2460   1427877.5058   6   6   0.0855   0.0654   0.0327   0.0656   0.0440   0.0476   0.00    0.0
2026/02/07 01:29:30.000   1337935.5155   6070317.2432   1427877.5050   6   6   0.0845   0.0641   0.0320   0.0644   0.0430   0.0467   0.00    0.0
2026/02/07 01:30:00.000   1337935.5144   6070317.2426   1427877.5052   6   6   0.0815   0.0602   0.0299   0.0608   0.0401   0.0441   0.00    0.0
2026/02/07 01:30:30.000   1337935.5136   6070317.2425   1427877.5049   6   6   0.0808   0.0593   0.0294   0.0599   0.0394   0.0435   0.00    0.0
2026/02/07 01:31:00.000   1337935.5148   6070317.2435   1427877.5052   6   6   0.0806   0.0590   0.0293   0.0597   0.0392   0.0433   0.00    0.0
2026/02/07 01:31:30.000   1337935.5159   6070317.2441   1427877.5054   6   6   0.0805   0.0589   0.0292   0.0595   0.0391   0.0432   0.00    0.0
2026/02/07 01:32:00.000   1337935.5165   6070317.2446   1427877.5055   6   6   0.0804   0.0588   0.0291   0.0594   0.0391   0.0431   0.00    0.0
2026/02/07 01:32:30.000   1337935.5170   6070317.2449   1427877.5057   6   6   0.0803   0.0587   0.0291   0.0594   0.0390   0.0431   0.00    0.0
2026/02/07 01:33:00.000   1337935.5179   6070317.2455   1427877.5059   6   6   0.0803   0.0586   0.0291   0.0593   0.0390   0.0430   0.00    0.0
2026/02/07 01:33:30.000   1337935.5184   6070317.2459   1427877.5060   6   6   0.0801   0.0585   0.0290   0.0591   0.0388   0.0429   0.00    0.0
2026/02/07 01:34:00.000   1337935.5190   6070317.2465   1427877.5061   6   6   0.0798   0.0581   0.0288   0.0588   0.0386   0.0427   0.00    0.0
2026/02/07 01:34:30.000   1337935.5229   6070317.2497   1427877.5070   6   6   0.0789   0.0571   0.0282   0.0577   0.0378   0.0419   0.00    0.0
2026/02/07 01:35:00.000   1337935.5292   6070317.2526   1427877.5084   6   6   0.0763   0.0539   0.0264   0.0547   0.0354   0.0396   0.00    0.0
2026/02/07 01:35:30.000   1337935.5297   6070317.2518   1427877.5086   6   6   0.0757   0.0532   0.0260   0.0540   0.0348   0.0391   0.00    0.0
2026/02/07 01:36:00.000   1337935.5288   6070317.2507   1427877.5084   6   6   0.0755   0.0530   0.0259   0.0538   0.0346   0.0389   0.00    0.0
2026/02/07 01:36:30.000   1337935.5285   6070317.2503   1427877.5082   6   6   0.0754   0.0529   0.0258   0.0536   0.0346   0.0388   0.00    0.0
2026/02/07 01:37:00.000   1337935.5282   6070317.2502   1427877.5082   6   6   0.0753   0.0528   0.0258   0.0536   0.0345   0.0388   0.00    0.0
2026/02/07 01:37:30.000   1337935.5281   6070317.2502   1427877.5082   6   6   0.0753   0.0528   0.0258   0.0535   0.0345   0.0388   0.00    0.0
2026/02/07 01:38:00.000   1337935.5277   6070317.2499   1427877.5081   6   6   0.0752   0.0527   0.0257   0.0535   0.0344   0.0387   0.00    0.0
2026/02/07 01:38:30.000   1337935.5267   6070317.2489   1427877.5078   6   6   0.0751   0.0526   0.0257   0.0533   0.0343   0.0386   0.00    0.0
2026/02/07 01:39:00.000   1337935.5244   6070317.2472   1427877.5073   6   6   0.0748   0.0523   0.0255   0.0530   0.0341   0.0384   0.00    0.0
2026/02/07 01:39:30.000   1337935.5206   6070317.2441   1427877.5066   6   6   0.0741   0.0515   0.0250   0.0522   0.0335   0.0377   0.00    0.0
2026/02/07 01:40:00.000   1337935.5192   6070317.2408   1427877.5064   6   6   0.0718   0.0490   0.0235   0.0496   0.0315   0.0358   0.00    0.0
2026/02/07 01:40:30.000   1337935.5190   6070317.2401   1427877.5062   6   6   0.0712   0.0484   0.0232   0.0490   0.0310   0.0353   0.00    0.0
2026/02/07 01:41:00.000   1337935.5190   6070317.2398   1427877.5061   6   6   0.0711   0.0482   0.0231   0.0488   0.0309   0.0352   0.00    0.0
2026/02/07 01:41:30.000   1337935.5191   6070317.2397   1427877.5060   6   6   0.0710   0.0481   0.0231   0.0487   0.0308   0.0351   0.00    0.0
2026/02/07 01:42:00.000   1337935.5195   6070317.2398   1427877.5061   6   6   0.0709   0.0481   0.0230   0.0486   0.0308   0.0351   0.00    0.0
2026/02/07 01:42:30.000   1337935.5197   6070317.2398   1427877.5062   6   6   0.0709   0.0480   0.0230   0.0486   0.0307   0.0350   0.00    0.0
2026/02/07 01:43:00.000   1337935.5197   6070317.2399   1427877.5062   6   6   0.0708   0.0480   0.0230   0.0485   0.0307   0.0350   0.00    0.0
2026/02/07 01:43:30.000   1337935.5198   6070317.2402   1427877.5063   6   6   0.0707   0.0479   0.0229   0.0484   0.0306   0.0349   0.00    0.0
2026/02/07 01:44:00.000   1337935.5191   6070317.2401   1427877.5061   6   6   0.0705   0.0476   0.0228   0.0482   0.0304   0.0347   0.00    0.0
2026/02/07 01:44:30.000   1337935.5185   6070317.2394   1427877.5061   6   6   0.0698   0.0470   0.0224   0.0475   0.0299   0.0342   0.00    0.0
2026/02/07 01:45:00.000   1337935.5132   6070317.2349   1427877.5049   6   6   0.0678   0.0450   0.0211   0.0453   0.0283   0.0324   0.00    0.0
2026/02/07 01:45:30.000   1337935.5098   6070317.2323   1427877.5046   6   6   0.0673   0.0445   0.0208   0.0448   0.0279   0.0320   0.00    0.0
2026/02/07 01:46:00.000   1337935.5089   6070317.2317   1427877.5044   6   6   0.0672   0.0444   0.0208   0.0446   0.0278   0.0319   0.00    0.0
2026/02/07 01:46:30.000   1337935.5086   6070317.2314   1427877.5043   6   6   0.0671   0.0443   0.0207   0.0445   0.0277   0.0318   0.00    0.0
2026/02/07 01:47:00.000   1337935.5083   6070317.2312   1427877.5043   6   6   0.0670   0.0443   0.0207   0.0445   0.0277   0.0318   0.00    0.0
2026/02/07 01:47:30.000   1337935.5083   6070317.2311   1427877.5042   6   6   0.0670   0.0442   0.0207   0.0445   0.0277   0.0318   0.00    0.0
2026/02/07 01:48:00.000   1337935.5083   6070317.2310   1427877.5042   6   6   0.0670   0.0442   0.0206   0.0444   0.0276   0.0317   0.00    0.0
2026/02/07 01:48:30.000   1337935.5086   6070317.2312   1427877.5043   6   6   0.0669   0.0441   0.0206   0.0443   0.0276   0.0317   0.00    0.0
2026/02/07 01:49:00.000   1337935.5092   6070317.2320   1427877.5046   6   6   0.0667   0.0439   0.0205   0.0441   0.0274   0.0315   0.00    0.0
2026/02/07 01:49:30.000   1337935.5103   6070317.2333   1427877.5052   6   6   0.0661   0.0434   0.0202   0.0435   0.0270   0.0310   0.00    0.0
2026/02/07 01:50:00.000   1337935.5096   6070317.2342   1427877.5062   6   6   0.0643   0.0418   0.0191   0.0416   0.0256   0.0295   0.00    0.0
2026/02/07 01:50:30.000   1337935.5094   6070317.2351   1427877.5067   6   6   0.0639   0.0414   0.0189   0.0412   0.0253   0.0292   0.00    0.0
2026/02/07 01:51:00.000   1337935.5094   6070317.2357   1427877.5070   6   6   0.0638   0.0413   0.0188   0.0411   0.0252   0.0291   0.00    0.0
2026/02/07 01:51:30.000   1337935.5097   6070317.2361   1427877.5071   6   6   0.0637   0.0412   0.0187   0.0410   0.0252   0.0290   0.00    0.0
2026/02/07 01:52:00.000   1337935.5096   6070317.2362   1427877.5071   6   6   0.0636   0.0412   0.0187   0.0409   0.0251   0.0290   0.00    0.0
2026/02/07 01:52:30.000   1337935.5098   6070317.2363   1427877.5072   6   6   0.0636   0.0411   0.0187   0.0409   0.0251   0.0290   0.00    0.0
2026/02/07 01:53:00.000   1337935.5102   6070317.2366   1427877.5072   6   6   0.0636   0.0411   0.0187   0.0409   0.0251   0.0289   0.00    0.0
2026/02/07 01:53:30.000   1337935.5109   6070317.2372   1427877.5074   6   6   0.0635   0.0410   0.0186   0.0408   0.0250   0.0289   0.00    0.0
2026/02/07 01:54:00.000   1337935.5115   6070317.2374   1427877.5073   6   6   0.0633   0.0409   0.0186   0.0406   0.0249   0.0287   0.00    0.0
2026/02/07 01:54:30.000   1337935.5129   6070317.2380   1427877.5074   6   6   0.0628   0.0405   0.0183   0.0401   0.0245   0.0283   0.00    0.0
2026/02/07 01:55:00.000   1337935.5160   6070317.2391   1427877.5088   6   6   0.0612   0.0391   0.0174   0.0385   0.0234   0.0270   0.00    0.0
2026/02/07 01:55:30.000   1337935.5172   6070317.2403   1427877.5092   6   6   0.0608   0.0388   0.0172   0.0381   0.0231   0.0267   0.00    0.0
2026/02/07 01:56:00.000   1337935.5175   6070317.2407   1427877.5093   6   6   0.0607   0.0387   0.0171   0.0380   0.0230   0.0266   0.00    0.0
2026/02/07 01:56:30.000   1337935.5177   6070317.2405   1427877.5092   6   6   0.0607   0.0386   0.0171   0.0379   0.0230   0.0265   0.00    0.0
2026/02/07 01:57:00.000   1337935.5178   6070317.2404   1427877.5092   6   6   0.0606   0.0386   0.0171   0.0379   0.0229   0.0265   0.00    0.0
2026/02/07 01:57:30.000   1337935.5179   6070317.2403   1427877.5091   6   6   0.0606   0.0386   0.0170   0.0378   0.0229   0.0265   0.00    0.0
2026/02/07 01:58:00.000   1337935.5180   6070317.2400   1427877.5090   6   6   0.0606   0.0385   0.0170   0.0378   0.0229   0.0264   0.00    0.0
2026/02/07 01:58:30.000   1337935.5181   6070317.2396   1427877.5089   6   6   0.0605   0.0385   0.0170   0.0377   0.0228   0.0264   0.00    0.0
2026/02/07 01:59:00.000   1337935.5185   6070317.2389   1427877.5085   6   6   0.0603   0.0383   0.0169   0.0376   0.0227   0.0262   0.00    0.0
2026/02/07 01:59:30.000   1337935.5182   6070317.2365   1427877.5074   6   6   0.0599   0.0380   0.0167   0.0371   0.0224   0.0259   0.00    0.0
2026/02/07 02:00:00.000   1337935.5171   6070317.2340   1427877.5066   6   6   0.0584   0.0368   0.0159   0.0357   0.0214   0.0247   0.00    0.0
2026/02/07 02:00:30.000   1337935.5186   6070317.2359   1427877.5069   6   6   0.0581   0.0365   0.0157   0.0353   0.0212   0.0244   0.00    0.0
2026/02/07 02:01:00.000   1337935.5184   6070317.2358   1427877.5069   6   6   0.0580   0.0364   0.0156   0.0352   0.0211   0.0243   0.00    0.0
2026/02/07 02:01:30.000   1337935.5184   6070317.2359   1427877.5069   6   6   0.0579   0.0363   0.0156   0.0351   0.0211   0.0243   0.00    0.0
2026/02/07 02:02:00.000   1337935.5185   6070317.2359   1427877.5068   6   6   0.0579   0.0363   0.0156   0.0351   0.0210   0.0242   0.00    0.0
2026/02/07 02:02:30.000   1337935.5182   6070317.2356   1427877.5067   6   6   0.0579   0.0363   0.0156   0.0351   0.0210   0.0242   0.00    0.0
2026/02/07 02:03:00.000   1337935.5181   6070317.2353   1427877.5066   6   6   0.0578   0.0363   0.0156   0.0350   0.0210   0.0242   0.00    0.0
2026/02/07 02:03:30.000   1337935.5181   6070317.2351   1427877.5065   6   6   0.0578   0.0362   0.0155   0.0350   0.0209   0.0241   0.00    0.0
2026/02/07 02:04:00.000   1337935.5181   6070317.2350   1427877.5066   6   6   0.0576   0.0361   0.0155   0.0348   0.0208   0.0240   0.00    0.0
2026/02/07 02:04:30.000   1337935.5184   6070317.2364   1427877.5070   6   6   0.0572   0.0357   0.0152   0.0343   0.0206   0.0237   0.00    0.0
2026/02/07 02:05:00.000   1337935.5159   6070317.2368   1427877.5074   6   6   0.0559   0.0347   0.0146   0.0330   0.0197   0.0226   0.00    0.0
2026/02/07 02:05:30.000   1337935.5170   6070317.2381   1427877.5080   6   6   0.0555   0.0343   0.0144   0.0327   0.0194   0.0223   0.00    0.0
2026/02/07 02:06:00.000   1337935.5166   6070317.2380   1427877.5081   6   6   0.0554   0.0342   0.0144   0.0325   0.0194   0.0222   0.00    0.0
2026/02/07 02:06:30.000   1337935.5166   6070317.2380   1427877.5081   6   6   0.0554   0.0342   0.0143   0.0325   0.0193   0.0222   0.00    0.0
2026/02/07 02:07:00.000   1337935.5169   6070317.2382   1427877.5082   6   6   0.0553   0.0342   0.0143   0.0324   0.0193   0.0221   0.00    0.0
2026/02/07 02:07:30.000   1337935.5170   6070317.2382   1427877.5082   6   6   0.0553   0.0341   0.0143   0.0324   0.0193   0.0221   0.00    0.0
2026/02/07 02:08:00.000   1337935.5171   6070317.2382   1427877.5082   6   6   0.0553   0.0341   0.0143   0.0324   0.0193   0.0221   0.00    0.0
2026/02/07 02:08:30.000   1337935.5172   6070317.2382   1427877.5082   6   6   0.0552   0.0341   0.0143   0.0323   0.0192   0.0220   0.00    0.0
2026/02/07 02:09:00.000   1337935.5165   6070317.2378   1427877.5081   6   6   0.0551   0.0340   0.0142   0.0322   0.0192   0.0219   0.00    0.0
2026/02/07 02:09:30.000   1337935.5134   6070317.2355   1427877.5076   6   6   0.0547   0.0337   0.0140   0.0318   0.0189   0.0216   0.00    0.0
2026/02/07 02:10:00.000   1337935.5130   6070317.2342   1427877.5076   6   6   0.0534   0.0329   0.0135   0.0305   0.0182   0.0206   0.00    0.0
2026/02/07 02:10:30.000   1337935.5143   6070317.2348   1427877.5078   6   6   0.0531   0.0327   0.0134   0.0302   0.0181   0.0204   0.00    0.0
2026/02/07 02:11:00.000   1337935.5147   6070317.2349   1427877.5078   6   6   0.0530   0.0326   0.0133   0.0301   0.0180   0.0203   0.00    0.0
2026/02/07 02:11:30.000   1337935.5155   6070317.2353   1427877.5079   6   6   0.0530   0.0326   0.0133   0.0300   0.0180   0.0203   0.00    0.0
2026/02/07 02:12:00.000   1337935.5160   6070317.2356   1427877.5079   6   6   0.0529   0.0325   0.0133   0.0300   0.0180   0.0203   0.00    0.0
2026/02/07 02:12:30.000   1337935.5162   6070317.2356   1427877.5079   6   6   0.0529   0.0325   0.0133   0.0300   0.0180   0.0202   0.00    0.0
2026/02/07 02:13:00.000   1337935.5163   6070317.2357   1427877.5079   6   6   0.0529   0.0325   0.0133   0.0299   0.0179   0.0202   0.00    0.0
2026/02/07 02:13:30.000   1337935.5171   6070317.2361   1427877.5080   6   6   0.0528   0.0325   0.0132   0.0299   0.0179   0.0202   0.00    0.0
2026/02/07 02:14:00.000   1337935.5179   6070317.2365   1427877.5080   6   6   0.0527   0.0324   0.0132   0.0298   0.0178   0.0201   0.00    0.0
2026/02/07 02:14:30.000   1337935.5187   6070317.2366   1427877.5081   6   6   0.0523   0.0321   0.0131   0.0294   0.0177   0.0198   0.00    0.0
2026/02/07 02:15:00.000   1337935.5172   6070317.2351   1427877.5076   6   6   0.0512   0.0315   0.0126   0.0283   0.0171   0.0189   0.00    0.0
2026/02/07 02:15:30.000   1337935.5150   6070317.2337   1427877.5072   6   6   0.0508   0.0313   0.0125   0.0279   0.0170   0.0187   0.00    0.0
2026/02/07 02:16:00.000   1337935.5138   6070317.2328   1427877.5070   6   6   0.0507   0.0312   0.0125   0.0278   0.0169   0.0186   0.00    0.0
2026/02/07 02:16:30.000   1337935.5134   6070317.2326   1427877.5070   6   6   0.0507   0.0312   0.0125   0.0278   0.0169   0.0186   0.00    0.0
2026/02/07 02:17:00.000   1337935.5136   6070317.2327   1427877.5070   6   6   0.0507   0.0312   0.0124   0.0278   0.0169   0.0186   0.00    0.0
2026/02/07 02:17:30.000   1337935.5138   6070317.2328   1427877.5071   6   6   0.0506   0.0312   0.0124   0.0277   0.0169   0.0185   0.00    0.0
2026/02/07 02:18:00.000   1337935.5142   6070317.2330   1427877.5071   6   6   0.0506   0.0312   0.0124   0.0277   0.0169   0.0185   0.00    0.0
2026/02/07 02:18:30.000   1337935.5152   6070317.2335   1427877.5073   6   5   0.0505   0.0311   0.0124   0.0276   0.0168   0.0185   0.00    0.0
2026/02/07 02:19:00.000   1337935.5150   6070317.2333   1427877.5072   6   5   0.0504   0.0311   0.0124   0.0275   0.0168   0.0184   0.00    0.0
2026/02/07 02:19:30.000   1337935.5147   6070317.2328   1427877.5072   6   5   0.0500   0.0309   0.0123   0.0272   0.0166   0.0181   0.00    0.0
2026/02/07 02:20:00.000   1337935.5144   6070317.2313   1427877.5069   6   5   0.0490   0.0303   0.0119   0.0262   0.0162   0.0174   0.00    0.0
2026/02/07 02:20:30.000   1337935.5167   6070317.2322   1427877.5071   6   5   0.0487   0.0302   0.0118   0.0259   0.0161   0.0172   0.00    0.0
2026/02/07 02:21:00.000   1337935.5185   6070317.2331   1427877.5073   6   5   0.0486   0.0301   0.0118   0.0258   0.0161   0.0171   0.00    0.0
2026/02/07 02:21:30.000   1337935.5190   6070317.2333   1427877.5073   6   5   0.0485   0.0301   0.0118   0.0257   0.0160   0.0171   0.00    0.0
2026/02/07 02:22:00.000   1337935.5193   6070317.2334   1427877.5074   6   5   0.0485   0.0301   0.0118   0.0257   0.0160   0.0171   0.00    0.0
2026/02/07 02:22:30.000   1337935.5194   6070317.2334   1427877.5074   6   5   0.0485   0.0301   0.0118   0.0257   0.0160   0.0170   0.00    0.0
2026/02/07 02:23:00.000   1337935.5193   6070317.2333   1427877.5074   6   5   0.0485   0.0301   0.0117   0.0256   0.0160   0.0170   0.00    0.0
2026/02/07 02:23:30.000   1337935.5189   6070317.2331   1427877.5074   6   5   0.0484   0.0301   0.0117   0.0256   0.0160   0.0170   0.00    0.0
2026/02/07 02:24:00.000   1337935.5187   6070317.2329   1427877.5073   6   5   0.0483   0.0300   0.0117   0.0255   0.0160   0.0169   0.00    0.0
2026/02/07 02:24:30.000   1337935.5175   6070317.2320   1427877.5073   6   5   0.0479   0.0298   0.0116   0.0251   0.0158   0.0167   0.00    0.0
2026/02/07 02:25:00.000   1337935.5208   6070317.2331   1427877.5078   6   5   0.0470   0.0294   0.0113   0.0242   0.0155   0.0160   0.00    0.0
2026/02/07 02:25:30.000   1337935.5231   6070317.2341   1427877.5080   6   5   0.0467   0.0293   0.0112   0.0240   0.0154   0.0158   0.00    0.0
2026/02/07 02:26:00.000   1337935.5237   6070317.2344   1427877.5081   6   5   0.0466   0.0293   0.0112   0.0239   0.0154   0.0158   0.00    0.0
2026/02/07 02:26:30.000   1337935.5236   6070317.2343   1427877.5081   6   5   0.0465   0.0292   0.0112   0.0238   0.0154   0.0157   0.00    0.0
2026/02/07 02:27:00.000   1337935.5236   6070317.2342   1427877.5081   6   6   0.0465   0.0292   0.0112   0.0238   0.0154   0.0157   0.00    0.0
2026/02/07 02:27:30.000   1337935.5236   6070317.2342   1427877.5081   6   6   0.0465   0.0292   0.0112   0.0238   0.0154   0.0157   0.00    0.0
2026/02/07 02:28:00.000   1337935.5235   6070317.2341   1427877.5081   6   6   0.0465   0.0292   0.0112   0.0238   0.0154   0.0157   0.00    0.0
2026/02/07 02:28:30.000   1337935.5228   6070317.2338   1427877.5080   6   6   0.0464   0.0292   0.0112   0.0237   0.0154   0.0156   0.00    0.0
2026/02/07 02:29:00.000   1337935.5220   6070317.2333   1427877.5080   6   6   0.0463   0.0292   0.0112   0.0236   0.0153   0.0156   0.00    0.0
2026/02/07 02:29:30.000   1337935.5230   6070317.2337   1427877.5082   6   6   0.0459   0.0290   0.0111   0.0233   0.0152   0.0154   0.00    0.0
2026/02/07 02:30:00.000   1337935.5231   6070317.2331   1427877.5086   6   6   0.0450   0.0287   0.0109   0.0225   0.0150   0.0148   0.00    0.0
2026/02/07 02:30:30.000   1337935.5251   6070317.2340   1427877.5088   6   6   0.0448   0.0286   0.0108   0.0222   0.0150   0.0146   0.00    0.0
2026/02/07 02:31:00.000   1337935.5267   6070317.2347   1427877.5090   6   6   0.0447   0.0286   0.0108   0.0222   0.0149   0.0146   0.00    0.0
2026/02/07 02:31:30.000   1337935.5271   6070317.2348   1427877.5090   6   6   0.0446   0.0286   0.0108   0.0221   0.0149   0.0145   0.00    0.0
2026/02/07 02:32:00.000   1337935.5273   6070317.2349   1427877.5090   6   6   0.0446   0.0285   0.0108   0.0221   0.0149   0.0145   0.00    0.0
2026/02/07 02:32:30.000   1337935.5276   6070317.2350   1427877.5090   6   6   0.0446   0.0285   0.0108   0.0221   0.0149   0.0145   0.00    0.0
2026/02/07 02:33:00.000   1337935.5282   6070317.2352   1427877.5091   6   6   0.0445   0.0285   0.0108   0.0220   0.0149   0.0145   0.00    0.0
2026/02/07 02:33:30.000   1337935.5283   6070317.2352   1427877.5091   6   6   0.0445   0.0285   0.0108   0.0220   0.0149   0.0145   0.00    0.0
2026/02/07 02:34:00.000   1337935.5283   6070317.2351   1427877.5091   6   6   0.0444   0.0285   0.0107   0.0219   0.0149   0.0144   0.00    0.0
2026/02/07 02:34:30.000   1337935.5313   6070317.2358   1427877.5094   6   6   0.0441   0.0284   0.0107   0.0216   0.0148   0.0142   0.00    0.0
2026/02/07 02:35:00.000   1337935.5324   6070317.2360   1427877.5099   6   6   0.0432   0.0281   0.0105   0.0209   0.0146   0.0137   0.00    0.0
2026/02/07 02:35:30.000   1337935.5333   6070317.2365   1427877.5100   6   6   0.0429   0.0280   0.0104   0.0207   0.0146   0.0136   0.00    0.0
2026/02/07 02:36:00.000   1337935.5348   6070317.2372   1427877.5102   6   6   0.0429   0.0280   0.0104   0.0206   0.0146   0.0135   0.00    0.0
2026/02/07 02:36:30.000   1337935.5351   6070317.2374   1427877.5102   6   6   0.0428   0.0279   0.0104   0.0206   0.0145   0.0135   0.00    0.0
2026/02/07 02:37:00.000   1337935.5354   6070317.2375   1427877.5103   6   6   0.0428   0.0279   0.0104   0.0205   0.0145   0.0135   0.00    0.0
2026/02/07 02:37:30.000   1337935.5357   6070317.2376   1427877.5103   6   6   0.0428   0.0279   0.0104   0.0205   0.0145   0.0135   0.00    0.0
2026/02/07 02:38:00.000   1337935.5360   6070317.2377   1427877.5103   6   6   0.0427   0.0279   0.0104   0.0205   0.0145   0.0135   0.00    0.0
2026/02/07 02:38:30.000   1337935.5359   6070317.2376   1427877.5103   6   6   0.0427   0.0279   0.0104   0.0205   0.0145   0.0134   0.00    0.0
2026/02/07 02:39:00.000   1337935.5357   6070317.2373   1427877.5103   6   6   0.0426   0.0279   0.0104   0.0204   0.0145   0.0134   0.00    0.0
2026/02/07 02:39:30.000   1337935.5348   6070317.2361   1427877.5102   6   6   0.0423   0.0277   0.0103   0.0202   0.0144   0.0132   0.00    0.0
2026/02/07 02:40:00.000   1337935.5342   6070317.2344   1427877.5105   6   6   0.0415   0.0275   0.0102   0.0195   0.0143   0.0128   0.00    0.0
2026/02/07 02:40:30.000   1337935.5354   6070317.2345   1427877.5105   6   6   0.0412   0.0274   0.0102   0.0193   0.0143   0.0127   0.00    0.0
2026/02/07 02:41:00.000   1337935.5358   6070317.2345   1427877.5106   6   6   0.0411   0.0273   0.0101   0.0192   0.0142   0.0126   0.00    0.0
2026/02/07 02:41:30.000   1337935.5362   6070317.2346   1427877.5106   6   6   0.0411   0.0273   0.0101   0.0192   0.0142   0.0126   0.00    0.0
2026/02/07 02:42:00.000   1337935.5366   6070317.2347   1427877.5106   6   6   0.0411   0.0273   0.0101   0.0192   0.0142   0.0126   0.00    0.0
2026/02/07 02:42:30.000   1337935.5367   6070317.2347   1427877.5106   6   6   0.0411   0.0273   0.0101   0.0192   0.0142   0.0126   0.00    0.0
2026/02/07 02:43:00.000   1337935.5370   6070317.2347   1427877.5107   6   6   0.0410   0.0273   0.0101   0.0192   0.0142   0.0126   0.00    0.0
2026/02/07 02:43:30.000   1337935.5376   6070317.2348   1427877.5107   6   6   0.0410   0.0273   0.0101   0.0191   0.0142   0.0126   0.00    0.0
2026/02/07 02:44:00.000   1337935.5395   6070317.2352   1427877.5109   6   6   0.0409   0.0272   0.0101   0.0191   0.0142   0.0125   0.00    0.0
2026/02/07 02:44:30.000   1337935.5443   6070317.2367   1427877.5114   6   6   0.0406   0.0271   0.0101   0.0189   0.0141   0.0124   0.00    0.0
2026/02/07 02:45:00.000   1337935.5440   6070317.2355   1427877.5118   6   6   0.0398   0.0268   0.0099   0.0183   0.0140   0.0120   0.00    0.0
2026/02/07 02:45:30.000   1337935.5401   6070317.2330   1427877.5114   6   6   0.0396   0.0267   0.0099   0.0181   0.0140   0.0119   0.00    0.0
2026/02/07 02:46:00.000   1337935.5401   6070317.2326   1427877.5113   6   6   0.0395   0.0267   0.0099   0.0180   0.0140   0.0119   0.00    0.0
2026/02/07 02:46:30.000   1337935.5406   6070317.2324   1427877.5113   6   6   0.0395   0.0267   0.0099   0.0180   0.0139   0.0119   0.00    0.0
2026/02/07 02:47:00.000   1337935.5409   6070317.2324   1427877.5113   6   6   0.0394   0.0267   0.0099   0.0180   0.0139   0.0118   0.00    0.0
2026/02/07 02:47:30.000   1337935.5412   6070317.2325   1427877.5113   6   6   0.0394   0.0267   0.0099   0.0180   0.0139   0.0118   0.00    0.0
2026/02/07 02:48:00.000   1337935.5421   6070317.2327   1427877.5114   6   6   0.0394   0.0266   0.0099   0.0180   0.0139   0.0118   0.00    0.0
2026/02/07 02:48:30.000   1337935.5444   6070317.2335   1427877.5115   6   6   0.0393   0.0266   0.0099   0.0180   0.0139   0.0118   0.00    0.0
2026/02/07 02:49:00.000   1337935.5487   6070317.2350   1427877.5119   6   6   0.0393   0.0266   0.0099   0.0179   0.0139   0.0118   0.00    0.0
2026/02/07 02:49:30.000   1337935.5484   6070317.2345   1427877.5119   6   6   0.0390   0.0264   0.0098   0.0177   0.0139   0.0117   0.00    0.0
2026/02/07 02:50:00.000   1337935.5496   6070317.2334   1427877.5123   6   6   0.0382   0.0261   0.0097   0.0172   0.0137   0.0113   0.00    0.0
2026/02/07 02:50:30.000   1337935.5535   6070317.2343   1427877.5130   6   6   0.0380   0.0260   0.0097   0.0171   0.0137   0.0112   0.00    0.0
2026/02/07 02:51:00.000   1337935.5546   6070317.2348   1427877.5132   6   6   0.0379   0.0260   0.0097   0.0170   0.0137   0.0112   0.00    0.0
2026/02/07 02:51:30.000   1337935.5552   6070317.2351   1427877.5133   6   6   0.0379   0.0260   0.0097   0.0170   0.0137   0.0112   0.00    0.0
2026/02/07 02:52:00.000   1337935.5555   6070317.2354   1427877.5134   6   6   0.0379   0.0260   0.0097   0.0170   0.0136   0.0112   0.00    0.0
2026/02/07 02:52:30.000   1337935.5558   6070317.2354   1427877.5134   6   6   0.0378   0.0259   0.0097   0.0170   0.0136   0.0112   0.00    0.0
2026/02/07 02:53:00.000   1337935.5559   6070317.2355   1427877.5134   6   6   0.0378   0.0259   0.0097   0.0170   0.0136   0.0112   0.00    0.0
2026/02/07 02:53:30.000   1337935.5566   6070317.2355   1427877.5135   6   6   0.0378   0.0259   0.0097   0.0169   0.0136   0.0112   0.00    0.0
2026/02/07 02:54:00.000   1337935.5585   6070317.2358   1427877.5136   6   6   0.0377   0.0259   0.0096   0.0169   0.0136   0.0111   0.00    0.0
2026/02/07 02:54:30.000   1337935.5607   6070317.2362   1427877.5138   6   6   0.0374   0.0258   0.0096   0.0167   0.0136   0.0110   0.00    0.0
2026/02/07 02:55:00.000   1337935.5572   6070317.2345   1427877.5136   6   6   0.0367   0.0255   0.0095   0.0162   0.0134   0.0107   0.00    0.0
2026/02/07 02:55:30.000   1337935.5528   6070317.2336   1427877.5134   6   6   0.0365   0.0255   0.0095   0.0160   0.0134   0.0107   0.00    0.0
2026/02/07 02:56:00.000   1337935.5512   6070317.2334   1427877.5134   6   6   0.0364   0.0254   0.0095   0.0160   0.0134   0.0106   0.00    0.0
2026/02/07 02:56:30.000   1337935.5502   6070317.2333   1427877.5133   6   6   0.0364   0.0254   0.0095   0.0160   0.0134   0.0106   0.00    0.0
2026/02/07 02:57:00.000   1337935.5496   6070317.2331   1427877.5133   6   6   0.0363   0.0254   0.0095   0.0160   0.0134   0.0106   0.00    0.0
2026/02/07 02:57:30.000   1337935.5490   6070317.2331   1427877.5133   6   6   0.0363   0.0254   0.0095   0.0159   0.0134   0.0106   0.00    0.0
2026/02/07 02:58:00.000   1337935.5484   6070317.2329   1427877.5133   6   6   0.0363   0.0254   0.0095   0.0159   0.0134   0.0106   0.00    0.0
2026/02/07 02:58:30.000   1337935.5475   6070317.2328   1427877.5132   6   6   0.0363   0.0254   0.0095   0.0159   0.0134   0.0106   0.00    0.0
2026/02/07 02:59:00.000   1337935.5455   6070317.2324   1427877.5131   6   6   0.0362   0.0253   0.0094   0.0159   0.0134   0.0106   0.00    0.0
2026/02/07 02:59:30.000   1337935.5420   6070317.2313   1427877.5130   6   6   0.0359   0.0253   0.0094   0.0157   0.0133   0.0105   0.00    0.0
2026/02/07 03:00:00.000   1337935.5424   6070317.2307   1427877.5129   6   6   0.0352   0.0250   0.0093   0.0153   0.0132   0.0102   0.00    0.0
2026/02/07 03:00:30.000   1337935.5405   6070317.2303   1427877.5128   6   6   0.0350   0.0250   0.0093   0.0152   0.0132   0.0101   0.00    0.0
2026/02/07 03:01:00.000   1337935.5393   6070317.2300   1427877.5128   6   6   0.0349   0.0249   0.0093   0.0151   0.0132   0.0101   0.00    0.0
2026/02/07 03:01:30.000   1337935.5386   6070317.2298   1427877.5127   6   6   0.0348   0.0249   0.0093   0.0151   0.0132   0.0101   0.00    0.0
2026/02/07 03:02:00.000   1337935.5382   6070317.2297   1427877.5127   6   6   0.0348   0.0249   0.0093   0.0151   0.0132   0.0101   0.00    0.0
2026/02/07 03:02:30.000   1337935.5379   6070317.2296   1427877.5127   6   6   0.0348   0.0249   0.0093   0.0151   0.0132   0.0101   0.00    0.0
2026/02/07 03:03:00.000   1337935.5375   6070317.2296   1427877.5127   6   6   0.0348   0.0249   0.0093   0.0151   0.0132   0.0101   0.00    0.0
2026/02/07 03:03:30.000   1337935.5375   6070317.2296   1427877.5127   6   6   0.0347   0.0249   0.0093   0.0151   0.0132   0.0101   0.00    0.0
2026/02/07 03:04:00.000   1337935.5373   6070317.2294   1427877.5127   6   6   0.0347   0.0249   0.0093   0.0150   0.0131   0.0100   0.00    0.0
2026/02/07 03:04:30.000   1337935.5349   6070317.2288   1427877.5125   6   6   0.0344   0.0248   0.0092   0.0149   0.0131   0.0100   0.00    0.0
2026/02/07 03:05:00.000   1337935.5350   6070317.2285   1427877.5126   6   6   0.0337   0.0246   0.0092   0.0145   0.0130   0.0097   0.00    0.0
2026/02/07 03:05:30.000   1337935.5348   6070317.2283   1427877.5126   6   6   0.0335   0.0245   0.0091   0.0144   0.0130   0.0097   0.00    0.0
2026/02/07 03:06:00.000   1337935.5342   6070317.2281   1427877.5126   6   6   0.0334   0.0245   0.0091   0.0144   0.0130   0.0096   0.00    0.0
2026/02/07 03:06:30.000   1337935.5328   6070317.2278   1427877.5125   6   6   0.0334   0.0245   0.0091   0.0144   0.0130   0.0096   0.00    0.0
2026/02/07 03:07:00.000   1337935.5320   6070317.2276   1427877.5125   6   6   0.0333   0.0245   0.0091   0.0144   0.0130   0.0096   0.00    0.0
2026/02/07 03:07:30.000   1337935.5315   6070317.2275   1427877.5124   6   6   0.0333   0.0245   0.0091   0.0144   0.0130   0.0096   0.00    0.0
2026/02/07 03:08:00.000   1337935.5310   6070317.2274   1427877.5124   6   6   0.0333   0.0245   0.0091   0.0144   0.0130   0.0096   0.00    0.0
2026/02/07 03:08:30.000   1337935.5308   6070317.2274   1427877.5124   6   6   0.0333   0.0245   0.0091   0.0143   0.0130   0.0096   0.00    0.0
2026/02/07 03:09:00.000   1337935.5304   6070317.2271   1427877.5124   6   6   0.0332   0.0244   0.0091   0.0143   0.0130   0.0096   0.00    0.0
2026/02/07 03:09:30.000   1337935.5280   6070317.2261   1427877.5123   6   6   0.0329   0.0244   0.0091   0.0142   0.0129   0.0095   0.00    0.0
2026/02/07 03:10:00.000   1337935.5253   6070317.2242   1427877.5121   6   6   0.0322   0.0242   0.0090   0.0139   0.0129   0.0093   0.00    0.0
2026/02/07 03:10:30.000   1337935.5230   6070317.2235   1427877.5120   6   6   0.0320   0.0241   0.0090   0.0138   0.0128   0.0093   0.00    0.0
2026/02/07 03:11:00.000   1337935.5205   6070317.2231   1427877.5118   6   6   0.0320   0.0241   0.0090   0.0138   0.0128   0.0092   0.00    0.0
2026/02/07 03:11:30.000   1337935.5193   6070317.2229   1427877.5118   6   5   0.0319   0.0241   0.0090   0.0138   0.0128   0.0092   0.00    0.0
2026/02/07 03:12:00.000   1337935.5187   6070317.2228   1427877.5117   6   5   0.0319   0.0241   0.0090   0.0138   0.0128   0.0092   0.00    0.0
2026/02/07 03:12:30.000   1337935.5185   6070317.2228   1427877.5117   6   5   0.0319   0.0241   0.0090   0.0138   0.0128   0.0092   0.00    0.0
2026/02/07 03:13:00.000   1337935.5180   6070317.2227   1427877.5117   6   5   0.0319   0.0241   0.0090   0.0138   0.0128   0.0092   0.00    0.0
2026/02/07 03:13:30.000   1337935.5174   6070317.2225   1427877.5117   6   5   0.0318   0.0241   0.0090   0.0138   0.0128   0.0092   0.00    0.0
2026/02/07 03:14:00.000   1337935.5167   6070317.2223   1427877.5117   6   5   0.0318   0.0241   0.0090   0.0137   0.0128   0.0092   0.00    0.0
2026/02/07 03:14:30.000   1337935.5175   6070317.2223   1427877.5117   6   5   0.0315   0.0240   0.0089   0.0137   0.0128   0.0091   0.00    0.0
2026/02/07 03:15:00.000   1337935.5216   6070317.2217   1427877.5121   6   5   0.0309   0.0239   0.0089   0.0134   0.0127   0.0090   0.00    0.0
2026/02/07 03:15:30.000   1337935.5223   6070317.2216   1427877.5122   6   5   0.0307   0.0238   0.0088   0.0134   0.0127   0.0089   0.00    0.0
2026/02/07 03:16:00.000   1337935.5218   6070317.2215   1427877.5122   6   5   0.0306   0.0238   0.0088   0.0133   0.0127   0.0089   0.00    0.0
2026/02/07 03:16:30.000   1337935.5215   6070317.2214   1427877.5122   6   5   0.0306   0.0238   0.0088   0.0133   0.0127   0.0089   0.00    0.0
2026/02/07 03:17:00.000   1337935.5214   6070317.2214   1427877.5122   6   6   0.0305   0.0238   0.0088   0.0133   0.0127   0.0089   0.00    0.0
2026/02/07 03:17:30.000   1337935.5214   6070317.2214   1427877.5122   6   6   0.0305   0.0238   0.0088   0.0133   0.0127   0.0089   0.00    0.0
2026/02/07 03:18:00.000   1337935.5215   6070317.2214   1427877.5122   6   6   0.0305   0.0238   0.0088   0.0133   0.0127   0.0089   0.00    0.0
2026/02/07 03:18:30.000   1337935.5220   6070317.2214   1427877.5122   6   6   0.0305   0.0238   0.0088   0.0133   0.0127   0.0089   0.00    0.0
2026/02/07 03:19:00.000   1337935.5234   6070317.2214   1427877.5122   6   6   0.0304   0.0238   0.0088   0.0133   0.0127   0.0089   0.00    0.0
2026/02/07 03:19:30.000   1337935.5252   6070317.2210   1427877.5122   6   6   0.0302   0.0237   0.0088   0.0132   0.0127   0.0088   0.00    0.0
2026/02/07 03:20:00.000   1337935.5287   6070317.2201   1427877.5122   6   6   0.0295   0.0236   0.0087   0.0130   0.0126   0.0087   0.00    0.0
2026/02/07 03:20:30.000   1337935.5232   6070317.2195   1427877.5120   6   6   0.0294   0.0236   0.0087   0.0130   0.0126   0.0086   0.00    0.0
2026/02/07 03:21:00.000   1337935.5214   6070317.2194   1427877.5120   6   6   0.0293   0.0235   0.0087   0.0130   0.0126   0.0086   0.00    0.0
2026/02/07 03:21:30.000   1337935.5209   6070317.2194   1427877.5120   6   6   0.0293   0.0235   0.0087   0.0130   0.0126   0.0086   0.00    0.0
2026/02/07 03:22:00.000   1337935.5206   6070317.2194   1427877.5120   6   6   0.0292   0.0235   0.0087   0.0130   0.0126   0.0086   0.00    0.0
2026/02/07 03:22:30.000   1337935.5205   6070317.2194   1427877.5120   6   6   0.0292   0.0235   0.0087   0.0130   0.0126   0.0086   0.00    0.0
2026/02/07 03:23:00.000   1337935.5202   6070317.2194   1427877.5120   6   6   0.0292   0.0235   0.0087   0.0130   0.0126   0.0086   0.00    0.0
